{
"type": "FeatureCollection",
"name": "Vaadomraader",
"crs": { "type": "name", "properties": { "name": "urn:ogc:def:crs:OGC:1.3:CRS84" } },
"features": [
{ "type": "Feature", "properties": { "Id": 0, "Navn": "Haverslev Mølle Å", "Type": 1.0, "Status": 2, "Forklari_1": "Realisering", "Type2": "N", "Ejer": "Kommunalt" }, "geometry": { "type": "Point", "coordinates": [ 9.374435365147585, 57.045008707906028 ] } },
{ "type": "Feature", "properties": { "Id": 0, "Navn": "Tingstrup Sø", "Type": 1.0, "Status": 2, "Forklari_1": "Realisering", "Type2": "N", "Ejer": "Kommunalt" }, "geometry": { "type": "Point", "coordinates": [ 8.683479321938766, 56.963426387382142 ] } },
{ "type": "Feature", "properties": { "Id": 0, "Navn": "Hundsø", "Type": 1.0, "Status": 2, "Forklari_1": "Realisering", "Type2": "N", "Ejer": "Kommunalt" }, "geometry": { "type": "Point", "coordinates": [ 8.891237504048807, 56.923028477822676 ] } },
{ "type": "Feature", "properties": { "Id": 0, "Navn": "Biskæret", "Type": 1.0, "Status": 2, "Forklari_1": "Realisering", "Type2": "N", "Ejer": "Kommunalt" }, "geometry": { "type": "Point", "coordinates": [ 8.899147316173392, 56.891661313708262 ] } },
{ "type": "Feature", "properties": { "Id": 0, "Navn": "Elkjær", "Type": 1.0, "Status": 2, "Forklari_1": "Realisering", "Type2": "N", "Ejer": "Kommunalt" }, "geometry": { "type": "Point", "coordinates": [ 9.029575039144493, 56.780477773523089 ] } },
{ "type": "Feature", "properties": { "Id": 0, "Navn": "Jølby Nor", "Type": 1.0, "Status": 2, "Forklari_1": "Realisering", "Type2": "N", "Ejer": "Kommunalt" }, "geometry": { "type": "Point", "coordinates": [ 8.692617744449318, 56.819310658799658 ] } },
{ "type": "Feature", "properties": { "Id": 0, "Navn": "Nøreng / Åsted Nissum", "Type": 1.0, "Status": 2, "Forklari_1": "Realisering", "Type2": "N", "Ejer": "Kommunalt" }, "geometry": { "type": "Point", "coordinates": [ 8.974788367530415, 56.785441711756853 ] } },
{ "type": "Feature", "properties": { "Id": 0, "Navn": "Ballegård", "Type": 1.0, "Status": 2, "Forklari_1": "Realisering", "Type2": "N", "Ejer": "Privat" }, "geometry": { "type": "Point", "coordinates": [ 8.720810042098396, 56.751936573390942 ] } },
{ "type": "Feature", "properties": { "Id": 0, "Navn": "Sillerslev Ørding Kær", "Type": 1.0, "Status": 2, "Forklari_1": "Realisering", "Type2": "N", "Ejer": "Kommunalt" }, "geometry": { "type": "Point", "coordinates": [ 8.747105459235319, 56.696455436682172 ] } },
{ "type": "Feature", "properties": { "Id": 0, "Navn": "Bjørndal Kær", "Type": 1.0, "Status": 2, "Forklari_1": "Realisering", "Type2": "N", "Ejer": "Kommunalt" }, "geometry": { "type": "Point", "coordinates": [ 8.503905785136377, 56.620219296445924 ] } },
{ "type": "Feature", "properties": { "Id": 0, "Navn": "Resenkær", "Type": 1.0, "Status": 2, "Forklari_1": "Realisering", "Type2": "N", "Ejer": "Kommunalt" }, "geometry": { "type": "Point", "coordinates": [ 8.509285650700605, 56.532803681409582 ] } },
{ "type": "Feature", "properties": { "Id": 0, "Navn": "Birkkær", "Type": 1.0, "Status": 2, "Forklari_1": "Realisering", "Type2": "N", "Ejer": "Kommunalt" }, "geometry": { "type": "Point", "coordinates": [ 8.779833475905113, 56.510719778245573 ] } },
{ "type": "Feature", "properties": { "Id": 0, "Navn": "Landting Hovedgård", "Type": 1.0, "Status": 2, "Forklari_1": "Realisering", "Type2": "N", "Ejer": "Privat" }, "geometry": { "type": "Point", "coordinates": [ 8.772352666579426, 56.495866954323596 ] } },
{ "type": "Feature", "properties": { "Id": 0, "Navn": "Hellegård Å", "Type": 1.0, "Status": 2, "Forklari_1": "Realisering", "Type2": "N", "Ejer": "Kommunalt" }, "geometry": { "type": "Point", "coordinates": [ 8.739547852924296, 56.464601689745123 ] } },
{ "type": "Feature", "properties": { "Id": 0, "Navn": "Skive Karup Å", "Type": 1.0, "Status": 1, "Forklari_1": "Ekstra forundersøgelse", "Type2": "N", "Ejer": "Kommunalt" }, "geometry": { "type": "Point", "coordinates": [ 8.989159826329029, 56.532373964741282 ] } },
{ "type": "Feature", "properties": { "Id": 0, "Navn": "Fiskbæk I-III", "Type": 1.0, "Status": 2, "Forklari_1": "Realisering", "Type2": "N", "Ejer": "Kommunalt" }, "geometry": { "type": "Point", "coordinates": [ 9.280007989127805, 56.506820599843145 ] } },
{ "type": "Feature", "properties": { "Id": 0, "Navn": "Rind Enge", "Type": 1.0, "Status": 2, "Forklari_1": "Realisering", "Type2": "N", "Ejer": "Kommunalt" }, "geometry": { "type": "Point", "coordinates": [ 9.35035478463908, 56.569906693643929 ] } },
{ "type": "Feature", "properties": { "Id": 0, "Navn": "Nørdam", "Type": 1.0, "Status": 2, "Forklari_1": "Realisering", "Type2": "N", "Ejer": "Privat" }, "geometry": { "type": "Point", "coordinates": [ 9.460429041004698, 56.592367810663568 ] } },
{ "type": "Feature", "properties": { "Id": 0, "Navn": "Gørup Enge", "Type": 1.0, "Status": 2, "Forklari_1": "Realisering", "Type2": "N", "Ejer": "Kommunalt" }, "geometry": { "type": "Point", "coordinates": [ 9.337180846692435, 56.666201765340105 ] } },
{ "type": "Feature", "properties": { "Id": 0, "Navn": "Lilleåen", "Type": 1.0, "Status": 2, "Forklari_1": "Er realiseret", "Type2": "N", "Ejer": "Kommunalt" }, "geometry": { "type": "Point", "coordinates": [ 9.388452283697196, 56.704958181236655 ] } },
{ "type": "Feature", "properties": { "Id": 0, "Navn": "Simested Å - Vesthimmerland", "Type": 1.0, "Status": 2, "Forklari_1": "Realisering", "Type2": "N", "Ejer": "Kommunalt" }, "geometry": { "type": "Point", "coordinates": [ 9.579406576696243, 56.685541664904413 ] } },
{ "type": "Feature", "properties": { "Id": 0, "Navn": "Simested Å midt", "Type": 1.0, "Status": 2, "Forklari_1": "Realisering", "Type2": "N", "Ejer": "Kommunalt" }, "geometry": { "type": "Point", "coordinates": [ 9.701122086597083, 56.679936049605431 ] } },
{ "type": "Feature", "properties": { "Id": 0, "Navn": "Simested Å midt 2", "Type": 1.0, "Status": 2, "Forklari_1": "Realisering", "Type2": "N", "Ejer": "Kommunalt" }, "geometry": { "type": "Point", "coordinates": [ 9.707347428534272, 56.680212106912528 ] } },
{ "type": "Feature", "properties": { "Id": 0, "Navn": "Nørresø", "Type": 1.0, "Status": 2, "Forklari_1": "Realisering", "Type2": "N", "Ejer": "Kommunalt" }, "geometry": { "type": "Point", "coordinates": [ 9.270473757362851, 56.609189575264203 ] } },
{ "type": "Feature", "properties": { "Id": 0, "Navn": "Simested Å udspring", "Type": 1.0, "Status": 2, "Forklari_1": "Realisering", "Type2": "N", "Ejer": "Kommunalt" }, "geometry": { "type": "Point", "coordinates": [ 9.761127382236992, 56.731289602907523 ] } },
{ "type": "Feature", "properties": { "Id": 0, "Navn": "Lindenborg Å udspring", "Type": 1.0, "Status": 2, "Forklari_1": "Realisering", "Type2": "N", "Ejer": "Kommunalt" }, "geometry": { "type": "Point", "coordinates": [ 9.778191868233817, 56.763485361284602 ] } },
{ "type": "Feature", "properties": { "Id": 0, "Navn": "Torsted Sø", "Type": 1.0, "Status": 2, "Forklari_1": "Realisering", "Type2": "N", "Ejer": "Kommunalt" }, "geometry": { "type": "Point", "coordinates": [ 9.716326240020559, 56.818692112077244 ] } },
{ "type": "Feature", "properties": { "Id": 0, "Navn": "Lerkendfeld", "Type": 1.0, "Status": 2, "Forklari_1": "Realisering", "Type2": "N", "Ejer": "Kommunalt" }, "geometry": { "type": "Point", "coordinates": [ 9.589685093559433, 56.772768150465261 ] } },
{ "type": "Feature", "properties": { "Id": 0, "Navn": "Vidkær", "Type": 1.0, "Status": 2, "Forklari_1": "Realisering", "Type2": "N", "Ejer": "Kommunalt" }, "geometry": { "type": "Point", "coordinates": [ 9.525430442223188, 56.937960722043506 ] } },
{ "type": "Feature", "properties": { "Id": 0, "Navn": "Vøvel Bæk", "Type": 1.0, "Status": 2, "Forklari_1": "Er realiseret", "Type2": "N", "Ejer": "Kommunalt" }, "geometry": { "type": "Point", "coordinates": [ 9.582004521693325, 56.939158591993468 ] } },
{ "type": "Feature", "properties": { "Id": 0, "Navn": "Lønnerup Fjord - Skiveren Nord", "Type": 2.0, "Status": 2, "Forklari_1": "Realisering", "Type2": "P", "Ejer": "Kommunalt" }, "geometry": { "type": "Point", "coordinates": [ 8.800620095686806, 56.99560984553964 ] } },
{ "type": "Feature", "properties": { "Id": 0, "Navn": "Jølby Nor", "Type": 0.0, "Status": 2, "Forklari_1": "Realisering", "Type2": "P", "Ejer": "Kommunalt" }, "geometry": { "type": "Point", "coordinates": [ 8.684207888316401, 56.819512745336382 ] } },
{ "type": "Feature", "properties": { "Id": 0, "Navn": "Horn Sø", "Type": 0.0, "Status": 2, "Forklari_1": "Realisering", "Type2": "P", "Ejer": "Kommunalt" }, "geometry": { "type": "Point", "coordinates": [ 8.276430093337526, 56.564953103097494 ] } },
{ "type": "Feature", "properties": { "Id": 0, "Navn": "Flyndersø - Ladegård Bæk og Nautrup Bæk", "Type": 0.0, "Status": 2, "Forklari_1": "Realisering", "Type2": "P", "Ejer": "Kommunalt" }, "geometry": { "type": "Point", "coordinates": [ 8.925445186004431, 56.422828707573359 ] } },
{ "type": "Feature", "properties": { "Id": 0, "Navn": "Gjæven", "Type": 0.0, "Status": 2, "Forklari_1": "Realisering", "Type2": "P", "Ejer": "Kommunalt" }, "geometry": { "type": "Point", "coordinates": [ 8.899109589803322, 56.451358042667763 ] } },
{ "type": "Feature", "properties": { "Id": 0, "Navn": "Brokholm Sø", "Type": 0.0, "Status": 2, "Forklari_1": "Realisering", "Type2": "P", "Ejer": "Kommunalt" }, "geometry": { "type": "Point", "coordinates": [ 9.081869711591773, 56.721344987811506 ] } },
{ "type": "Feature", "properties": { "Id": 0, "Navn": "Lemvig Sø", "Type": 0.0, "Status": 2, "Forklari_1": "Realisering", "Type2": "P", "Ejer": "Kommunalt" }, "geometry": { "type": "Point", "coordinates": [ 8.319309083986626, 56.541873937479004 ] } }
]
}
